{
"type": "FeatureCollection",
"crs": { "type": "name", "properties": { "name": "urn:ogc:def:crs:OGC:1.3:CRS84"} },

"features": [
{ "type": "Feature", "properties": { "Station": "Kennedy Town", "Line": "Island Line", "Location": "Kennedy Town MTR Hong Kong", "Latitude": 22.281284, "Longitude": 114.128524 }, "geometry": { "type": "Point", "coordinates": [ 114.128524, 22.281284 ] } },
{ "type": "Feature", "properties": { "Station": "HKU", "Line": "Island Line", "Location": "HKU MTR Hong Kong", "Latitude": 22.284054, "Longitude": 114.138019 }, "geometry": { "type": "Point", "coordinates": [ 114.138019, 22.284054 ] } },
{ "type": "Feature", "properties": { "Station": "Sai Ying Pun", "Line": "Island Line", "Location": "Sai Ying Pun MTR Hong Kong", "Latitude": 22.286943, "Longitude": 114.142600 }, "geometry": { "type": "Point", "coordinates": [ 114.1426, 22.286943 ] } },
{ "type": "Feature", "properties": { "Station": "Sheung Wan", "Line": "Island Line", "Location": "Sheung Wan MTR Hong Kong", "Latitude": 22.286555, "Longitude": 114.151868 }, "geometry": { "type": "Point", "coordinates": [ 114.151868, 22.286555 ] } },
{ "type": "Feature", "properties": { "Station": "Central", "Line": "Island Line", "Location": "Central MTR Hong Kong", "Latitude": 22.282079, "Longitude": 114.157775 }, "geometry": { "type": "Point", "coordinates": [ 114.157775, 22.282079 ] } },
{ "type": "Feature", "properties": { "Station": "Admiralty", "Line": "Island Line", "Location": "Admiralty MTR Hong Kong", "Latitude": 22.279412, "Longitude": 114.164559 }, "geometry": { "type": "Point", "coordinates": [ 114.164559, 22.279412 ] } },
{ "type": "Feature", "properties": { "Station": "Wan Chai", "Line": "Island Line", "Location": "Wan Chai MTR Hong Kong", "Latitude": 22.277608, "Longitude": 114.172967 }, "geometry": { "type": "Point", "coordinates": [ 114.172967, 22.277608 ] } },
{ "type": "Feature", "properties": { "Station": "Causeway Bay", "Line": "Island Line", "Location": "Causeway Bay MTR Hong Kong", "Latitude": 22.280209, "Longitude": 114.184116 }, "geometry": { "type": "Point", "coordinates": [ 114.184116, 22.280209 ] } },
{ "type": "Feature", "properties": { "Station": "Tin Hau", "Line": "Island Line", "Location": "Tin Hau MTR Hong Kong", "Latitude": 22.282174, "Longitude": 114.191802 }, "geometry": { "type": "Point", "coordinates": [ 114.191802, 22.282174 ] } },
{ "type": "Feature", "properties": { "Station": "Fortress Hill", "Line": "Island Line", "Location": "Fortress Hill MTR Hong Kong", "Latitude": 22.287913, "Longitude": 114.193661 }, "geometry": { "type": "Point", "coordinates": [ 114.193661, 22.287913 ] } },
{ "type": "Feature", "properties": { "Station": "North Point", "Line": "Island Line", "Location": "North Point MTR Hong Kong", "Latitude": 22.291123, "Longitude": 114.200018 }, "geometry": { "type": "Point", "coordinates": [ 114.200018, 22.291123 ] } },
{ "type": "Feature", "properties": { "Station": "Quarry Bay", "Line": "Island Line", "Location": "Quarry Bay MTR Hong Kong", "Latitude": 22.288580, "Longitude": 114.208713 }, "geometry": { "type": "Point", "coordinates": [ 114.208713, 22.28858 ] } },
{ "type": "Feature", "properties": { "Station": "Tai Koo", "Line": "Island Line", "Location": "Tai Koo MTR Hong Kong", "Latitude": 22.284649, "Longitude": 114.216359 }, "geometry": { "type": "Point", "coordinates": [ 114.216359, 22.284649 ] } },
{ "type": "Feature", "properties": { "Station": "Sai Wan Ho", "Line": "Island Line", "Location": "Sai Wan Ho MTR Hong Kong", "Latitude": 22.282096, "Longitude": 114.221905 }, "geometry": { "type": "Point", "coordinates": [ 114.221905, 22.282096 ] } },
{ "type": "Feature", "properties": { "Station": "Shau Kei Wan", "Line": "Island Line", "Location": "Shau Kei Wan MTR Hong Kong", "Latitude": 22.279189, "Longitude": 114.228921 }, "geometry": { "type": "Point", "coordinates": [ 114.228921, 22.279189 ] } },
{ "type": "Feature", "properties": { "Station": "Heng Fa Chuen", "Line": "Island Line", "Location": "Heng Fa Chuen MTR Hong Kong", "Latitude": 22.276666, "Longitude": 114.239701 }, "geometry": { "type": "Point", "coordinates": [ 114.239701, 22.276666 ] } },
{ "type": "Feature", "properties": { "Station": "Chai Wan", "Line": "Island Line", "Location": "Chai Wan MTR Hong Kong", "Latitude": 22.264625, "Longitude": 114.237139 }, "geometry": { "type": "Point", "coordinates": [ 114.237139, 22.264625 ] } },
{ "type": "Feature", "properties": { "Station": "Yau Ma Tei", "Line": "Kwun Tong Line", "Location": "Yau Ma Tei MTR Hong Kong", "Latitude": 22.312828, "Longitude": 114.170682 }, "geometry": { "type": "Point", "coordinates": [ 114.170682, 22.312828 ] } },
{ "type": "Feature", "properties": { "Station": "Mong Kok", "Line": "Kwun Tong Line", "Location": "Mong Kok MTR Hong Kong", "Latitude": 22.319253, "Longitude": 114.169355 }, "geometry": { "type": "Point", "coordinates": [ 114.169355, 22.319253 ] } },
{ "type": "Feature", "properties": { "Station": "Prince Edward", "Line": "Kwun Tong Line", "Location": "Prince Edward MTR Hong Kong", "Latitude": 22.324740, "Longitude": 114.168252 }, "geometry": { "type": "Point", "coordinates": [ 114.168252, 22.32474 ] } },
{ "type": "Feature", "properties": { "Station": "Shek Kip Mei", "Line": "Kwun Tong Line", "Location": "Shek Kip Mei MTR Hong Kong", "Latitude": 22.331728, "Longitude": 114.168813 }, "geometry": { "type": "Point", "coordinates": [ 114.168813, 22.331728 ] } },
{ "type": "Feature", "properties": { "Station": "Kowloon Tong", "Line": "Kwun Tong Line", "Location": "Kowloon Tong MTR Hong Kong", "Latitude": 22.336918, "Longitude": 114.175852 }, "geometry": { "type": "Point", "coordinates": [ 114.175852, 22.336918 ] } },
{ "type": "Feature", "properties": { "Station": "Lok Fu", "Line": "Kwun Tong Line", "Location": "Lok Fu MTR Hong Kong", "Latitude": 22.338026, "Longitude": 114.187022 }, "geometry": { "type": "Point", "coordinates": [ 114.187022, 22.338026 ] } },
{ "type": "Feature", "properties": { "Station": "Wong Tai Sin", "Line": "Kwun Tong Line", "Location": "Wong Tai Sin MTR Hong Kong", "Latitude": 22.341656, "Longitude": 114.193851 }, "geometry": { "type": "Point", "coordinates": [ 114.193851, 22.341656 ] } },
{ "type": "Feature", "properties": { "Station": "Diamond Hill", "Line": "Kwun Tong Line", "Location": "Diamond Hill MTR Hong Kong", "Latitude": 22.340017, "Longitude": 114.201698 }, "geometry": { "type": "Point", "coordinates": [ 114.201698, 22.340017 ] } },
{ "type": "Feature", "properties": { "Station": "Choi Hung", "Line": "Kwun Tong Line", "Location": "Choi Hung MTR Hong Kong", "Latitude": 22.334969, "Longitude": 114.209050 }, "geometry": { "type": "Point", "coordinates": [ 114.20905, 22.334969 ] } },
{ "type": "Feature", "properties": { "Station": "Kowloon Bay", "Line": "Kwun Tong Line", "Location": "Kowloon Bay MTR Hong Kong", "Latitude": 22.323385, "Longitude": 114.214014 }, "geometry": { "type": "Point", "coordinates": [ 114.214014, 22.323385 ] } },
{ "type": "Feature", "properties": { "Station": "Ngau Tau Kok", "Line": "Kwun Tong Line", "Location": "Ngau Tau Kok MTR Hong Kong", "Latitude": 22.315547, "Longitude": 114.218913 }, "geometry": { "type": "Point", "coordinates": [ 114.218913, 22.315547 ] } },
{ "type": "Feature", "properties": { "Station": "Kwun Tong", "Line": "Kwun Tong Line", "Location": "Kwun Tong MTR Hong Kong", "Latitude": 22.312238, "Longitude": 114.226367 }, "geometry": { "type": "Point", "coordinates": [ 114.226367, 22.312238 ] } },
{ "type": "Feature", "properties": { "Station": "Lam Tin", "Line": "Kwun Tong Line", "Location": "Lam Tin MTR Hong Kong", "Latitude": 22.306855, "Longitude": 114.232733 }, "geometry": { "type": "Point", "coordinates": [ 114.232733, 22.306855 ] } },
{ "type": "Feature", "properties": { "Station": "Yau Tong", "Line": "Kwun Tong Line", "Location": "Yau Tong MTR Hong Kong", "Latitude": 22.298112, "Longitude": 114.236966 }, "geometry": { "type": "Point", "coordinates": [ 114.236966, 22.298112 ] } },
{ "type": "Feature", "properties": { "Station": "Tiu Keng Leng", "Line": "Kwun Tong Line", "Location": "Tiu Keng Leng MTR Hong Kong", "Latitude": 22.303800, "Longitude": 114.252098 }, "geometry": { "type": "Point", "coordinates": [ 114.252098, 22.3038 ] } },
{ "type": "Feature", "properties": { "Station": "Central", "Line": "Tsuen Wan Line", "Location": "Central MTR Hong Kong", "Latitude": 22.282079, "Longitude": 114.157775 }, "geometry": { "type": "Point", "coordinates": [ 114.157775, 22.282079 ] } },
{ "type": "Feature", "properties": { "Station": "Admiralty", "Line": "Tsuen Wan Line", "Location": "Admiralty MTR Hong Kong", "Latitude": 22.279412, "Longitude": 114.164559 }, "geometry": { "type": "Point", "coordinates": [ 114.164559, 22.279412 ] } },
{ "type": "Feature", "properties": { "Station": "Tsim Sha Tsui", "Line": "Tsuen Wan Line", "Location": "Tsim Sha Tsui MTR Hong Kong", "Latitude": 22.297604, "Longitude": 114.172175 }, "geometry": { "type": "Point", "coordinates": [ 114.172175, 22.297604 ] } },
{ "type": "Feature", "properties": { "Station": "Jordan", "Line": "Tsuen Wan Line", "Location": "Jordan MTR Hong Kong", "Latitude": 22.304787, "Longitude": 114.171664 }, "geometry": { "type": "Point", "coordinates": [ 114.171664, 22.304787 ] } },
{ "type": "Feature", "properties": { "Station": "Yau Ma Tei", "Line": "Tsuen Wan Line", "Location": "Yau Ma Tei MTR Hong Kong", "Latitude": 22.312828, "Longitude": 114.170682 }, "geometry": { "type": "Point", "coordinates": [ 114.170682, 22.312828 ] } },
{ "type": "Feature", "properties": { "Station": "Mong Kok", "Line": "Tsuen Wan Line", "Location": "Mong Kok MTR Hong Kong", "Latitude": 22.319253, "Longitude": 114.169355 }, "geometry": { "type": "Point", "coordinates": [ 114.169355, 22.319253 ] } },
{ "type": "Feature", "properties": { "Station": "Prince Edward", "Line": "Tsuen Wan Line", "Location": "Prince Edward MTR Hong Kong", "Latitude": 22.324740, "Longitude": 114.168252 }, "geometry": { "type": "Point", "coordinates": [ 114.168252, 22.32474 ] } },
{ "type": "Feature", "properties": { "Station": "Sham Shui Po", "Line": "Tsuen Wan Line", "Location": "Sham Shui Po MTR Hong Kong", "Latitude": 22.331070, "Longitude": 114.161876 }, "geometry": { "type": "Point", "coordinates": [ 114.161876, 22.33107 ] } },
{ "type": "Feature", "properties": { "Station": "Cheung Sha Wan", "Line": "Tsuen Wan Line", "Location": "Cheung Sha Wan MTR Hong Kong", "Latitude": 22.335606, "Longitude": 114.156017 }, "geometry": { "type": "Point", "coordinates": [ 114.156017, 22.335606 ] } },
{ "type": "Feature", "properties": { "Station": "Lai Chi Kok", "Line": "Tsuen Wan Line", "Location": "Lai Chi Kok MTR Hong Kong", "Latitude": 22.337265, "Longitude": 114.148033 }, "geometry": { "type": "Point", "coordinates": [ 114.148033, 22.337265 ] } },
{ "type": "Feature", "properties": { "Station": "Mei Foo", "Line": "Tsuen Wan Line", "Location": "Mei Foo MTR Hong Kong", "Latitude": 22.337751, "Longitude": 114.136401 }, "geometry": { "type": "Point", "coordinates": [ 114.136401, 22.337751 ] } },
{ "type": "Feature", "properties": { "Station": "Lai King", "Line": "Tsuen Wan Line", "Location": "Lai King MTR Hong Kong", "Latitude": 22.348416, "Longitude": 114.126161 }, "geometry": { "type": "Point", "coordinates": [ 114.126161, 22.348416 ] } },
{ "type": "Feature", "properties": { "Station": "Kwai Fong", "Line": "Tsuen Wan Line", "Location": "Kwai Fong MTR Hong Kong", "Latitude": 22.356718, "Longitude": 114.127693 }, "geometry": { "type": "Point", "coordinates": [ 114.127693, 22.356718 ] } },
{ "type": "Feature", "properties": { "Station": "Kwai Hing", "Line": "Tsuen Wan Line", "Location": "Kwai Hing MTR Hong Kong", "Latitude": 22.363056, "Longitude": 114.131207 }, "geometry": { "type": "Point", "coordinates": [ 114.131207, 22.363056 ] } },
{ "type": "Feature", "properties": { "Station": "Tai Wo Hau", "Line": "Tsuen Wan Line", "Location": "Tai Wo Hau MTR Hong Kong", "Latitude": 22.370758, "Longitude": 114.124951 }, "geometry": { "type": "Point", "coordinates": [ 114.124951, 22.370758 ] } },
{ "type": "Feature", "properties": { "Station": "Tsuen Wan", "Line": "Tsuen Wan Line", "Location": "Tsuen Wan MTR Hong Kong", "Latitude": 22.373644, "Longitude": 114.117780 }, "geometry": { "type": "Point", "coordinates": [ 114.11778, 22.373644 ] } },
{ "type": "Feature", "properties": { "Station": "North Point", "Line": "Tseung Kwan O Line", "Location": "North Point MTR Hong Kong", "Latitude": 22.291123, "Longitude": 114.200018 }, "geometry": { "type": "Point", "coordinates": [ 114.200018, 22.291123 ] } },
{ "type": "Feature", "properties": { "Station": "Quarry Bay", "Line": "Tseung Kwan O Line", "Location": "Quarry Bay MTR Hong Kong", "Latitude": 22.288580, "Longitude": 114.208713 }, "geometry": { "type": "Point", "coordinates": [ 114.208713, 22.28858 ] } },
{ "type": "Feature", "properties": { "Station": "Yau Tong", "Line": "Tseung Kwan O Line", "Location": "Yau Tong MTR Hong Kong", "Latitude": 22.298112, "Longitude": 114.236966 }, "geometry": { "type": "Point", "coordinates": [ 114.236966, 22.298112 ] } },
{ "type": "Feature", "properties": { "Station": "Tiu Keng Leng", "Line": "Tseung Kwan O Line", "Location": "Tiu Keng Leng MTR Hong Kong", "Latitude": 22.303800, "Longitude": 114.252098 }, "geometry": { "type": "Point", "coordinates": [ 114.252098, 22.3038 ] } },
{ "type": "Feature", "properties": { "Station": "Tseung Kwan O", "Line": "Tseung Kwan O Line", "Location": "Tseung Kwan O MTR Hong Kong", "Latitude": 22.307436, "Longitude": 114.260018 }, "geometry": { "type": "Point", "coordinates": [ 114.260018, 22.307436 ] } },
{ "type": "Feature", "properties": { "Station": "Hang Hau", "Line": "Tseung Kwan O Line", "Location": "Hang Hau MTR Hong Kong", "Latitude": 22.315596, "Longitude": 114.264393 }, "geometry": { "type": "Point", "coordinates": [ 114.264393, 22.315596 ] } },
{ "type": "Feature", "properties": { "Station": "Po Lam", "Line": "Tseung Kwan O Line", "Location": "Po Lam MTR Hong Kong", "Latitude": 22.322511, "Longitude": 114.257832 }, "geometry": { "type": "Point", "coordinates": [ 114.257832, 22.322511 ] } },
{ "type": "Feature", "properties": { "Station": "Hang Hau", "Line": "Tseung Kwan O Line", "Location": "Hang Hau MTR Hong Kong", "Latitude": 22.315596, "Longitude": 114.264393 }, "geometry": { "type": "Point", "coordinates": [ 114.264393, 22.315596 ] } },
{ "type": "Feature", "properties": { "Station": "Tseung Kwan O", "Line": "Tseung Kwan O Line", "Location": "Tseung Kwan O MTR Hong Kong", "Latitude": 22.307436, "Longitude": 114.260018 }, "geometry": { "type": "Point", "coordinates": [ 114.260018, 22.307436 ] } },
{ "type": "Feature", "properties": { "Station": "LOHAS Park", "Line": "Tseung Kwan O Line", "Location": "LOHAS Park MTR Hong Kong", "Latitude": 22.295398, "Longitude": 114.268600 }, "geometry": { "type": "Point", "coordinates": [ 114.2686, 22.295398 ] } },
{ "type": "Feature", "properties": { "Station": "Hong Kong", "Line": "Tung Chung Line", "Location": "Hong Kong MTR Hong Kong", "Latitude": 22.284681, "Longitude": 114.158177 }, "geometry": { "type": "Point", "coordinates": [ 114.158177, 22.284681 ] } },
{ "type": "Feature", "properties": { "Station": "Kowloon", "Line": "Tung Chung Line", "Location": "Kowloon MTR Hong Kong", "Latitude": 22.304306, "Longitude": 114.161475 }, "geometry": { "type": "Point", "coordinates": [ 114.161475, 22.304306 ] } },
{ "type": "Feature", "properties": { "Station": "Olympic", "Line": "Tung Chung Line", "Location": "Olympic MTR Hong Kong", "Latitude": 22.317771, "Longitude": 114.160220 }, "geometry": { "type": "Point", "coordinates": [ 114.16022, 22.317771 ] } },
{ "type": "Feature", "properties": { "Station": "Nam Cheong", "Line": "Tung Chung Line", "Location": "Nam Cheong MTR Hong Kong", "Latitude": 22.326734, "Longitude": 114.153599 }, "geometry": { "type": "Point", "coordinates": [ 114.153599, 22.326734 ] } },
{ "type": "Feature", "properties": { "Station": "Lai King", "Line": "Tung Chung Line", "Location": "Lai King MTR Hong Kong", "Latitude": 22.348416, "Longitude": 114.126161 }, "geometry": { "type": "Point", "coordinates": [ 114.126161, 22.348416 ] } },
{ "type": "Feature", "properties": { "Station": "Tsing Yi", "Line": "Tung Chung Line", "Location": "Tsing Yi MTR Hong Kong", "Latitude": 22.358487, "Longitude": 114.107261 }, "geometry": { "type": "Point", "coordinates": [ 114.107261, 22.358487 ] } },
{ "type": "Feature", "properties": { "Station": "Sunny Bay", "Line": "Tung Chung Line", "Location": "Sunny Bay MTR Hong Kong", "Latitude": 22.332071, "Longitude": 114.029067 }, "geometry": { "type": "Point", "coordinates": [ 114.029067, 22.332071 ] } },
{ "type": "Feature", "properties": { "Station": "Tung Chung", "Line": "Tung Chung Line", "Location": "Tung Chung MTR Hong Kong", "Latitude": 22.289163, "Longitude": 113.941269 }, "geometry": { "type": "Point", "coordinates": [ 113.941269, 22.289163 ] } },
{ "type": "Feature", "properties": { "Station": "Hung Hom", "Line": "East Rail Line", "Location": "Hung Hom MTR Hong Kong", "Latitude": 22.303067, "Longitude": 114.181527 }, "geometry": { "type": "Point", "coordinates": [ 114.181527, 22.303067 ] } },
{ "type": "Feature", "properties": { "Station": "Mong Kok East", "Line": "East Rail Line", "Location": "Mong Kok East MTR Hong Kong", "Latitude": 22.322051, "Longitude": 114.172604 }, "geometry": { "type": "Point", "coordinates": [ 114.172604, 22.322051 ] } },
{ "type": "Feature", "properties": { "Station": "Kowloon Tong", "Line": "East Rail Line", "Location": "Kowloon Tong MTR Hong Kong", "Latitude": 22.336918, "Longitude": 114.175852 }, "geometry": { "type": "Point", "coordinates": [ 114.175852, 22.336918 ] } },
{ "type": "Feature", "properties": { "Station": "Tai Wai", "Line": "East Rail Line", "Location": "Tai Wai MTR Hong Kong", "Latitude": 22.372746, "Longitude": 114.178677 }, "geometry": { "type": "Point", "coordinates": [ 114.178677, 22.372746 ] } },
{ "type": "Feature", "properties": { "Station": "Sha Tin", "Line": "East Rail Line", "Location": "Sha Tin MTR Hong Kong", "Latitude": 22.382049, "Longitude": 114.186856 }, "geometry": { "type": "Point", "coordinates": [ 114.186856, 22.382049 ] } },
{ "type": "Feature", "properties": { "Station": "Fo Tan", "Line": "East Rail Line", "Location": "Fo Tan MTR Hong Kong", "Latitude": 22.395003, "Longitude": 114.198037 }, "geometry": { "type": "Point", "coordinates": [ 114.198037, 22.395003 ] } },
{ "type": "Feature", "properties": { "Station": "Racecourse", "Line": "East Rail Line", "Location": "Racecourse MTR Hong Kong", "Latitude": 22.403181, "Longitude": 114.202491 }, "geometry": { "type": "Point", "coordinates": [ 114.202491, 22.403181 ] } },
{ "type": "Feature", "properties": { "Station": "University", "Line": "East Rail Line", "Location": "University MTR Hong Kong", "Latitude": 22.413123, "Longitude": 114.209953 }, "geometry": { "type": "Point", "coordinates": [ 114.209953, 22.413123 ] } },
{ "type": "Feature", "properties": { "Station": "Tai Po Market", "Line": "East Rail Line", "Location": "Tai Po Market MTR Hong Kong", "Latitude": 22.444547, "Longitude": 114.170482 }, "geometry": { "type": "Point", "coordinates": [ 114.170482, 22.444547 ] } },
{ "type": "Feature", "properties": { "Station": "Tai Wo", "Line": "East Rail Line", "Location": "Tai Wo MTR Hong Kong", "Latitude": 22.450932, "Longitude": 114.161350 }, "geometry": { "type": "Point", "coordinates": [ 114.16135, 22.450932 ] } },
{ "type": "Feature", "properties": { "Station": "Fanling", "Line": "East Rail Line", "Location": "Fanling MTR Hong Kong", "Latitude": 22.492073, "Longitude": 114.138691 }, "geometry": { "type": "Point", "coordinates": [ 114.138691, 22.492073 ] } },
{ "type": "Feature", "properties": { "Station": "Sheung Shui", "Line": "East Rail Line", "Location": "Sheung Shui MTR Hong Kong", "Latitude": 22.501257, "Longitude": 114.127945 }, "geometry": { "type": "Point", "coordinates": [ 114.127945, 22.501257 ] } },
{ "type": "Feature", "properties": { "Station": "Lo Wu", "Line": "East Rail Line", "Location": "Lo Wu MTR Hong Kong", "Latitude": 22.527801, "Longitude": 114.113192 }, "geometry": { "type": "Point", "coordinates": [ 114.113192, 22.527801 ] } },
{ "type": "Feature", "properties": { "Station": "Sheung Shui", "Line": "East Rail Line", "Location": "Sheung Shui MTR Hong Kong", "Latitude": 22.501257, "Longitude": 114.127945 }, "geometry": { "type": "Point", "coordinates": [ 114.127945, 22.501257 ] } },
{ "type": "Feature", "properties": { "Station": "Lok Ma Chau", "Line": "East Rail Line", "Location": "Lok Ma Chau MTR Hong Kong", "Latitude": 22.514464, "Longitude": 114.065647 }, "geometry": { "type": "Point", "coordinates": [ 114.065647, 22.514464 ] } },
{ "type": "Feature", "properties": { "Station": "Tai Wai", "Line": "Ma On Shan Line", "Location": "Tai Wai MTR Hong Kong", "Latitude": 22.372746, "Longitude": 114.178677 }, "geometry": { "type": "Point", "coordinates": [ 114.178677, 22.372746 ] } },
{ "type": "Feature", "properties": { "Station": "Che Kung Temple", "Line": "Ma On Shan Line", "Location": "Che Kung Temple MTR Hong Kong", "Latitude": 22.374760, "Longitude": 114.185953 }, "geometry": { "type": "Point", "coordinates": [ 114.185953, 22.37476 ] } },
{ "type": "Feature", "properties": { "Station": "Sha Tin Wai", "Line": "Ma On Shan Line", "Location": "Sha Tin Wai MTR Hong Kong", "Latitude": 22.377042, "Longitude": 114.195034 }, "geometry": { "type": "Point", "coordinates": [ 114.195034, 22.377042 ] } },
{ "type": "Feature", "properties": { "Station": "City One", "Line": "Ma On Shan Line", "Location": "City One MTR Hong Kong", "Latitude": 22.382820, "Longitude": 114.203490 }, "geometry": { "type": "Point", "coordinates": [ 114.20349, 22.38282 ] } },
{ "type": "Feature", "properties": { "Station": "Shek Mun", "Line": "Ma On Shan Line", "Location": "Shek Mun MTR Hong Kong", "Latitude": 22.387694, "Longitude": 114.208349 }, "geometry": { "type": "Point", "coordinates": [ 114.208349, 22.387694 ] } },
{ "type": "Feature", "properties": { "Station": "Tai Shui Hang", "Line": "Ma On Shan Line", "Location": "Tai Shui Hang MTR Hong Kong", "Latitude": 22.408425, "Longitude": 114.222716 }, "geometry": { "type": "Point", "coordinates": [ 114.222716, 22.408425 ] } },
{ "type": "Feature", "properties": { "Station": "Heng On", "Line": "Ma On Shan Line", "Location": "Heng On MTR Hong Kong", "Latitude": 22.417319, "Longitude": 114.225701 }, "geometry": { "type": "Point", "coordinates": [ 114.225701, 22.417319 ] } },
{ "type": "Feature", "properties": { "Station": "Ma On Shan", "Line": "Ma On Shan Line", "Location": "Ma On Shan MTR Hong Kong", "Latitude": 22.424807, "Longitude": 114.231630 }, "geometry": { "type": "Point", "coordinates": [ 114.23163, 22.424807 ] } },
{ "type": "Feature", "properties": { "Station": "Wu Kai Sha", "Line": "Ma On Shan Line", "Location": "Wu Kai Sha MTR Hong Kong", "Latitude": 22.429145, "Longitude": 114.243841 }, "geometry": { "type": "Point", "coordinates": [ 114.243841, 22.429145 ] } },
{ "type": "Feature", "properties": { "Station": "Hung Hom", "Line": "West Rail Line", "Location": "Hung Hom MTR Hong Kong", "Latitude": 22.303067, "Longitude": 114.181527 }, "geometry": { "type": "Point", "coordinates": [ 114.181527, 22.303067 ] } },
{ "type": "Feature", "properties": { "Station": "East Tsim Sha Tsui", "Line": "West Rail Line", "Location": "East Tsim Sha Tsui MTR Hong Kong", "Latitude": 22.295263, "Longitude": 114.174586 }, "geometry": { "type": "Point", "coordinates": [ 114.174586, 22.295263 ] } },
{ "type": "Feature", "properties": { "Station": "Austin", "Line": "West Rail Line", "Location": "Austin MTR Hong Kong", "Latitude": 22.304981, "Longitude": 114.166270 }, "geometry": { "type": "Point", "coordinates": [ 114.16627, 22.304981 ] } },
{ "type": "Feature", "properties": { "Station": "Nam Cheong", "Line": "West Rail Line", "Location": "Nam Cheong MTR Hong Kong", "Latitude": 22.326734, "Longitude": 114.153599 }, "geometry": { "type": "Point", "coordinates": [ 114.153599, 22.326734 ] } },
{ "type": "Feature", "properties": { "Station": "Mei Foo", "Line": "West Rail Line", "Location": "Mei Foo MTR Hong Kong", "Latitude": 22.337751, "Longitude": 114.136401 }, "geometry": { "type": "Point", "coordinates": [ 114.136401, 22.337751 ] } },
{ "type": "Feature", "properties": { "Station": "Tsuen Wan West", "Line": "West Rail Line", "Location": "Tsuen Wan West MTR Hong Kong", "Latitude": 22.368313, "Longitude": 114.109780 }, "geometry": { "type": "Point", "coordinates": [ 114.10978, 22.368313 ] } },
{ "type": "Feature", "properties": { "Station": "Kam Sheung Road", "Line": "West Rail Line", "Location": "Kam Sheung Road MTR Hong Kong", "Latitude": 22.434798, "Longitude": 114.063441 }, "geometry": { "type": "Point", "coordinates": [ 114.063441, 22.434798 ] } },
{ "type": "Feature", "properties": { "Station": "Yuen Long", "Line": "West Rail Line", "Location": "Yuen Long MTR Hong Kong", "Latitude": 22.446113, "Longitude": 114.034706 }, "geometry": { "type": "Point", "coordinates": [ 114.034706, 22.446113 ] } },
{ "type": "Feature", "properties": { "Station": "Long Ping", "Line": "West Rail Line", "Location": "Long Ping MTR Hong Kong", "Latitude": 22.447660, "Longitude": 114.024850 }, "geometry": { "type": "Point", "coordinates": [ 114.02485, 22.44766 ] } },
{ "type": "Feature", "properties": { "Station": "Tin Shui Wai", "Line": "West Rail Line", "Location": "Tin Shui Wai MTR Hong Kong", "Latitude": 22.448281, "Longitude": 114.004687 }, "geometry": { "type": "Point", "coordinates": [ 114.004687, 22.448281 ] } },
{ "type": "Feature", "properties": { "Station": "Siu Hong", "Line": "West Rail Line", "Location": "Siu Hong MTR Hong Kong", "Latitude": 22.411341, "Longitude": 113.978772 }, "geometry": { "type": "Point", "coordinates": [ 113.978772, 22.411341 ] } },
{ "type": "Feature", "properties": { "Station": "Tuen Mun", "Line": "West Rail Line", "Location": "Tuen Mun MTR Hong Kong", "Latitude": 22.394875, "Longitude": 113.973132 }, "geometry": { "type": "Point", "coordinates": [ 113.973132, 22.394875 ] } },
{ "type": "Feature", "properties": { "Station": "Hong Kong", "Line": "Airport Express", "Location": "Hong Kong MTR Hong Kong", "Latitude": 22.284681, "Longitude": 114.158177 }, "geometry": { "type": "Point", "coordinates": [ 114.158177, 22.284681 ] } },
{ "type": "Feature", "properties": { "Station": "Kowloon", "Line": "Airport Express", "Location": "Kowloon MTR Hong Kong", "Latitude": 22.304306, "Longitude": 114.161475 }, "geometry": { "type": "Point", "coordinates": [ 114.161475, 22.304306 ] } },
{ "type": "Feature", "properties": { "Station": "Tsing Yi", "Line": "Airport Express", "Location": "Tsing Yi MTR Hong Kong", "Latitude": 22.358487, "Longitude": 114.107261 }, "geometry": { "type": "Point", "coordinates": [ 114.107261, 22.358487 ] } },
{ "type": "Feature", "properties": { "Station": "Airport", "Line": "Airport Express", "Location": "Airport MTR Hong Kong", "Latitude": 22.316058, "Longitude": 113.936503 }, "geometry": { "type": "Point", "coordinates": [ 113.936503, 22.316058 ] } },
{ "type": "Feature", "properties": { "Station": "AsiaWorld", "Line": "Airport Express", "Location": "AsiaWorld MTR Hong Kong", "Latitude": 22.321812, "Longitude": 113.941218 }, "geometry": { "type": "Point", "coordinates": [ 113.941218, 22.321812 ] } },
{ "type": "Feature", "properties": { "Station": "Expo", "Line": "Airport Express", "Location": "Expo MTR Hong Kong", "Latitude": 22.321812, "Longitude": 113.941218 }, "geometry": { "type": "Point", "coordinates": [ 113.941218, 22.321812 ] } },
{ "type": "Feature", "properties": { "Station": "Sunny Bay", "Line": "Disneyland Resort Line", "Location": "Sunny Bay MTR Hong Kong", "Latitude": 22.332071, "Longitude": 114.029067 }, "geometry": { "type": "Point", "coordinates": [ 114.029067, 22.332071 ] } },
{ "type": "Feature", "properties": { "Station": "Disneyland Resort", "Line": "Disneyland Resort Line", "Location": "Disneyland Resort MTR Hong Kong", "Latitude": 22.315474, "Longitude": 114.044921 }, "geometry": { "type": "Point", "coordinates": [ 114.044921, 22.315474 ] } }
]
}
